[
  {
    "latitude": 35.19218782394681,
    "longitude": -0.6280660630909553,
    "nomFr": "Aissait Idir 1",
    "numero": "A03",
    "_id": "LwQg8rVspcbUpQPz"
  },
  {
    "latitude": 35.19644012334427,
    "longitude": -0.6219381094251731,
    "nomFr": "Aissat Idir 2",
    "numero": "A03",
    "_id": "b75G4vAkJf7wn4n3"
  },
  {
    "latitude": 35.12999994343361,
    "longitude": -0.580880641937256,
    "nomFr": "Amarna",
    "numero": "A27",
    "_id": "MGgHyeIiPQKTPIcw"
  },
  {
    "latitude": 35.21922339425797,
    "longitude": -0.6124162675041589,
    "nomFr": "Batiments Citroen",
    "numero": "A22",
    "_id": "Z9LRHpZwIHxfaYAH"
  },
  {
    "latitude": 35.217417796971496,
    "longitude": -0.6221218677165964,
    "nomFr": "Benhamouda",
    "numero": "A16",
    "_id": "oqL4JCm4eraf1qPU"
  },
  {
    "latitude": 35.18446882052546,
    "longitude": -0.6163537487009307,
    "nomFr": "Beni Tala",
    "numero": "A25",
    "_id": "L7wohx9eowxx9Qp9"
  },
  {
    "latitude": 35.19841860890055,
    "longitude": -0.6354296208519373,
    "nomFr": "Bibliothèque Qabbati",
    "numero": "A03 bis",
    "_id": "h1D9pBP3RXSaECv3"
  },
  {
    "latitude": 35.19839669108725,
    "longitude": -0.6354616954085879,
    "nomFr": "Bibliothèque Qabbati",
    "numero": "A17",
    "_id": "yJ7qZ30bmX9l8Z3q"
  },
  {
    "latitude": 35.1324626334086,
    "longitude": -0.560302734047582,
    "nomFr": "Bouaîch, Terminus A27",
    "numero": "A27",
    "_id": "slBo8VCB9s0C97eq"
  },
  {
    "latitude": 35.187213374020885,
    "longitude": -0.6397587062019738,
    "nomFr": "Brandt",
    "numero": "A11",
    "_id": "JZWZirYK5XnV88AZ"
  },
  {
    "latitude": 35.18335811250718,
    "longitude": -0.6115955105633476,
    "nomFr": "Bâtiments Bosquet, Hai Jazira",
    "numero": "A25",
    "_id": "Pnyun9IKxBUwjTbV"
  },
  {
    "latitude": 35.20378394863493,
    "longitude": -0.6453770405641991,
    "nomFr": "Bâtiments Kaddouri",
    "numero": "A03 bis",
    "_id": "tCHgW38hebU0NFCU"
  },
  {
    "latitude": 35.18429636996814,
    "longitude": -0.6427860256735586,
    "nomFr": "CEM Belkhouja",
    "numero": "A11",
    "_id": "V8FjNOtO0oSUZJPw"
  },
  {
    "latitude": 35.193267140154596,
    "longitude": -0.612613757872298,
    "nomFr": "CNAS",
    "numero": "A16",
    "_id": "dQXNplm7AzhXm4kN"
  },
  {
    "latitude": 35.20974794310967,
    "longitude": -0.6190431131108198,
    "nomFr": "Cadastre",
    "numero": "A22",
    "_id": "jHdPT3IbxByMUikA"
  },
  {
    "latitude": 35.20151190469453,
    "longitude": -0.6116098159509421,
    "nomFr": "Campo",
    "numero": "A03",
    "_id": "mIdrCrL7uB5e2bkQ"
  },
  {
    "latitude": 35.22106401137937,
    "longitude": -0.6376073473947931,
    "nomFr": "Campus",
    "numero": "A17",
    "_id": "n9fnBCZveTqwaKZj"
  },
  {
    "latitude": 35.19527843473473,
    "longitude": -0.6236082317082038,
    "nomFr": "Casoran",
    "numero": "A03",
    "_id": "u4v13T0SWT67fMTf"
  },
  {
    "latitude": 35.21410450924982,
    "longitude": -0.6386902366139081,
    "nomFr": "Centre El Niaâma",
    "numero": "A17",
    "_id": "9DnxUVdJGRluJL7G"
  },
  {
    "latitude": 35.21528871825198,
    "longitude": -0.6142273031139968,
    "nomFr": "Cité 600, ECOBAT Rocher",
    "numero": "A16",
    "_id": "oN5pnkerLIZcONn6"
  },
  {
    "latitude": 35.209731872190105,
    "longitude": -0.6486368178775593,
    "nomFr": "Cité AADL 1",
    "numero": "A03 bis",
    "_id": "7Gsb6rXN7svNRwnm"
  },
  {
    "latitude": 35.211544945314614,
    "longitude": -0.6532001495088481,
    "nomFr": "Cité Adda Boujelal",
    "numero": "A03 bis",
    "_id": "Zz27I7itRdDywuMi"
  },
  {
    "latitude": 35.17835389098825,
    "longitude": -0.6462800504959887,
    "nomFr": "Cité Universitaire 1500",
    "numero": "A11",
    "_id": "VxbcGeiYRsGmomFM"
  },
  {
    "latitude": 35.205937582431,
    "longitude": -0.6145906448364259,
    "nomFr": "Cité Universitaire 2000",
    "numero": "A03",
    "_id": "RS38mTahWes4oQBn"
  },
  {
    "latitude": 35.20609756862548,
    "longitude": -0.614850364845685,
    "nomFr": "Cité Universitaire 2000",
    "numero": "A16",
    "_id": "znP6xSA3CGgA52BG"
  },
  {
    "latitude": 35.218580630073866,
    "longitude": -0.6384031827183146,
    "nomFr": "Cité Universitaire campus",
    "numero": "A17",
    "_id": "bRuUGS3M3FX0EeDJ"
  },
  {
    "latitude": 35.17752664505625,
    "longitude": -0.6198745965957643,
    "nomFr": "Clos",
    "numero": "A27",
    "_id": "ylEkl1O4rj3adY52"
  },
  {
    "latitude": 35.19300907561111,
    "longitude": -0.6323826314110194,
    "nomFr": "Coupole, Didouche Mourad",
    "numero": "A03",
    "_id": "oEbzfgiUu7EogR5H"
  },
  {
    "latitude": 35.19303684048432,
    "longitude": -0.6323574855632552,
    "nomFr": "Coupole, Didouche Mourad",
    "numero": "A17",
    "_id": "VlwrvrGZXxsyGmpu"
  },
  {
    "latitude": 35.259586117748825,
    "longitude": -0.5714374780109212,
    "nomFr": "DGAPR, Sidi Brahim",
    "numero": "A22",
    "_id": "NknWgy9M8a7wgLVo"
  },
  {
    "latitude": 35.17866081777454,
    "longitude": -0.6496614218849573,
    "nomFr": "Direction Des Services Agricoles",
    "numero": "A11",
    "_id": "0PpW16adFfy01HrK"
  },
  {
    "latitude": 35.20544301161261,
    "longitude": -0.6389924323811981,
    "nomFr": "Enie",
    "numero": "A17",
    "_id": "lQ6o0K6qc34r8EQC"
  },
  {
    "latitude": 35.20140962476388,
    "longitude": -0.6390130522595427,
    "nomFr": "Fac Centrale",
    "numero": "A03 bis",
    "_id": "kUgq4Dt49HTGKGRx"
  },
  {
    "latitude": 35.20250620575055,
    "longitude": -0.6385641731994808,
    "nomFr": "Fac Centrale",
    "numero": "A17",
    "_id": "Vmw3I6Ys36fr7fYm"
  },
  {
    "latitude": 35.18003320420134,
    "longitude": -0.6444025038581459,
    "nomFr": "Fac de Médecine",
    "numero": "A11",
    "_id": "jgrTTgl6fCd1br1L"
  },
  {
    "latitude": 35.21655807901658,
    "longitude": -0.6127640604154295,
    "nomFr": "Frères Adnane 1",
    "numero": "A03",
    "_id": "SA0tRHNZXTaEX0A0"
  },
  {
    "latitude": 35.21604165929567,
    "longitude": -0.6083410978317262,
    "nomFr": "Frères Adnane 2",
    "numero": "A03",
    "_id": "7WAPh5VZCv5UF7XW"
  },
  {
    "latitude": 35.2175989427995,
    "longitude": -0.6068247553957917,
    "nomFr": "Frères Adnane 3",
    "numero": "A03",
    "_id": "SK7cCyYBIGANABoD"
  },
  {
    "latitude": 35.21323818160588,
    "longitude": -0.6156045198440553,
    "nomFr": "Ghalmi, Gare Routiere Est",
    "numero": "A03",
    "_id": "cl8oJLasdz1r9jxx"
  },
  {
    "latitude": 35.21346944668,
    "longitude": -0.615729290760314,
    "nomFr": "Ghalmi, Gare Routiere Est",
    "numero": "A16",
    "_id": "tkiJSCRnHoOWpPE6"
  },
  {
    "latitude": 35.21324840823195,
    "longitude": -0.6156706812180348,
    "nomFr": "Ghalmi, Gare Routiere Est",
    "numero": "A22",
    "_id": "O7YcYL52VjV7ba5m"
  },
  {
    "latitude": 35.16931218894989,
    "longitude": -0.6912410253789859,
    "nomFr": "INSFP Chaouti, Sidi Lahcene",
    "numero": "A11",
    "_id": "l8iAWxLyPIi45gK4"
  },
  {
    "latitude": 35.180657274529246,
    "longitude": -0.6614935397010414,
    "nomFr": "ITMA",
    "numero": "A11",
    "_id": "IHaayFW8VFxLA0jT"
  },
  {
    "latitude": 35.20351875831952,
    "longitude": -0.6387259998373307,
    "nomFr": "Ibnrochd",
    "numero": "A17",
    "_id": "OziMOKucvRowrFov"
  },
  {
    "latitude": 35.20528302388609,
    "longitude": -0.6256699574078085,
    "nomFr": "Institut d'Informatique",
    "numero": "A22",
    "_id": "WOTti0EWNZR1yEGO"
  },
  {
    "latitude": 35.20201161386724,
    "longitude": -0.6428021199099022,
    "nomFr": "Kiosque Militaire",
    "numero": "A03 bis",
    "_id": "vha6oFwTfyHILQDd"
  },
  {
    "latitude": 35.19959340293933,
    "longitude": -0.6146135208697135,
    "nomFr": "L'Abattoire",
    "numero": "A16",
    "_id": "YGNlVwxcNG94l2A1"
  },
  {
    "latitude": 35.193415314844394,
    "longitude": -0.6331086158752443,
    "nomFr": "La Coupole, 8 Mai 1945",
    "numero": "A03 bis",
    "_id": "71sP06yhEtXHOfsv"
  },
  {
    "latitude": 35.19344161801317,
    "longitude": -0.6330018670955485,
    "nomFr": "La Coupole, 8 Mai 1945",
    "numero": "A16",
    "_id": "lEoOXOgZj5PhtpBI"
  },
  {
    "latitude": 35.19607481441708,
    "longitude": -0.6350451707839966,
    "nomFr": "La Douane",
    "numero": "A03 bis",
    "_id": "Tc3mSG6AJ9G3Ikwd"
  },
  {
    "latitude": 35.19607481450069,
    "longitude": -0.6350414827720609,
    "nomFr": "La Douane",
    "numero": "A17",
    "_id": "bInNckpIcYsSDQKX"
  },
  {
    "latitude": 35.19244384538697,
    "longitude": -0.6200798841126698,
    "nomFr": "La Maternité",
    "numero": "A16",
    "_id": "ykw6TUlRTontFaGl"
  },
  {
    "latitude": 35.20955509176457,
    "longitude": -0.6163412333080487,
    "nomFr": "La Poste CPR",
    "numero": "A03",
    "_id": "NF61MzZTQVorQZ1y"
  },
  {
    "latitude": 35.20955918247701,
    "longitude": -0.6165619982414028,
    "nomFr": "La Poste CPR",
    "numero": "A16",
    "_id": "za4ShjS01sCZsKka"
  },
  {
    "latitude": 35.19293484215335,
    "longitude": -0.615638021775924,
    "nomFr": "La Poste Sidi Yacine, La Briemer",
    "numero": "A16",
    "_id": "Dy8BZkUJBBeBQQvL"
  },
  {
    "latitude": 35.17644799693647,
    "longitude": -0.5831336975097657,
    "nomFr": "La Zone Industrielle",
    "numero": "A25",
    "_id": "GyEwxSAt7sUSY3cC"
  },
  {
    "latitude": 35.16738854153384,
    "longitude": -0.6869637968338795,
    "nomFr": "Laiterie Ziane",
    "numero": "A11",
    "_id": "CihPlIXBqYW3uNMd"
  },
  {
    "latitude": 35.21681738312756,
    "longitude": -0.615200826310134,
    "nomFr": "Les Impôts, Rocher",
    "numero": "A16",
    "_id": "HZIJ3Om3w3beC3cb"
  },
  {
    "latitude": 35.19971760277043,
    "longitude": -0.614928602190048,
    "nomFr": "Lycée Dar Abid",
    "numero": "A03",
    "_id": "taiUxdSxpgHnTY65"
  },
  {
    "latitude": 35.185791420856944,
    "longitude": -0.6311774253845216,
    "nomFr": "Lycée Ennajah",
    "numero": "A25",
    "_id": "hfiW3Yxb5QyuCilx"
  },
  {
    "latitude": 35.18578411361145,
    "longitude": -0.6311523916519947,
    "nomFr": "Lycée Ennajah",
    "numero": "A27",
    "_id": "nJ1IyPAEh8vojs6h"
  },
  {
    "latitude": 35.20070330486032,
    "longitude": -0.6121093852050664,
    "nomFr": "Lycée Inal",
    "numero": "A16",
    "_id": "a3rBJhDxnGCA2Q6n"
  },
  {
    "latitude": 35.20719554755508,
    "longitude": -0.6392579148523448,
    "nomFr": "Maison de retraite",
    "numero": "A17",
    "_id": "TJo7cIHscq4S6h7c"
  },
  {
    "latitude": 35.19859029921737,
    "longitude": -0.6185030938559067,
    "nomFr": "Marché OFLA",
    "numero": "A03",
    "_id": "z9SSrCWD9wnLfWvB"
  },
  {
    "latitude": 35.20764700708249,
    "longitude": -0.647671222632198,
    "nomFr": "Mosquée Ouhoud",
    "numero": "A03 bis",
    "_id": "ZxRjujyGnjUs2e50"
  },
  {
    "latitude": 35.18277352300397,
    "longitude": -0.6233847127077752,
    "nomFr": "Palais de Justice",
    "numero": "A25",
    "_id": "ZuK80JRLWkhCeAPw"
  },
  {
    "latitude": 35.18384624158673,
    "longitude": -0.6284809111457436,
    "nomFr": "Parc de la Commune",
    "numero": "A25",
    "_id": "NIXhtUnlfKxYlU3O"
  },
  {
    "latitude": 35.183840395687255,
    "longitude": -0.6284880639213952,
    "nomFr": "Parc de la Commune",
    "numero": "A27",
    "_id": "SSnnjGRPbguQVrNJ"
  },
  {
    "latitude": 35.191476163091195,
    "longitude": -0.6285881999974664,
    "nomFr": "Petit Vichy",
    "numero": "A16",
    "_id": "Y1X5UDFSTcFXK72Q"
  },
  {
    "latitude": 35.18922569561231,
    "longitude": -0.6338998675346376,
    "nomFr": "Prado",
    "numero": "A11",
    "_id": "bx5gHAEScSTCrzh0"
  },
  {
    "latitude": 35.18925638429941,
    "longitude": -0.633888244519767,
    "nomFr": "Prado",
    "numero": "A25",
    "_id": "uAbHM760wTJm1I0w"
  },
  {
    "latitude": 35.1892125436225,
    "longitude": -0.6338810920715332,
    "nomFr": "Prado",
    "numero": "A27",
    "_id": "NAuTwUFy5vQIHL80"
  },
  {
    "latitude": 35.20441806358956,
    "longitude": -0.6135284900665284,
    "nomFr": "Protection Civile CPR",
    "numero": "A03",
    "_id": "aBlCOlSBY6fVoDWb"
  },
  {
    "latitude": 35.20439468614373,
    "longitude": -0.6136920700616378,
    "nomFr": "Protection Civile CPR",
    "numero": "A16",
    "_id": "NxJ27Sx4KNTTaEG8"
  },
  {
    "latitude": 35.219857389009235,
    "longitude": -0.6084394452227571,
    "nomFr": "Rocher, Terminus A03",
    "numero": "A03",
    "_id": "nM9ScawKITknzgxM"
  },
  {
    "latitude": 35.217262946092895,
    "longitude": -0.613190531730652,
    "nomFr": "Rond Point rocher",
    "numero": "A22",
    "_id": "Zx7Mwkrgc0EWcBc7"
  },
  {
    "latitude": 35.18372347898071,
    "longitude": -0.6515800953457075,
    "nomFr": "Sakia El Hamra",
    "numero": "A11",
    "_id": "oBYYc6JyL93WXQn3"
  },
  {
    "latitude": 35.21082907158397,
    "longitude": -0.6392829489122899,
    "nomFr": "Sheraton",
    "numero": "A17",
    "_id": "fpohlgeBDHRfwDdw"
  },
  {
    "latitude": 35.25732293700516,
    "longitude": -0.566344856615615,
    "nomFr": "Sidi Brahim,Terminus A22",
    "numero": "A22",
    "_id": "YVnU5TqOGcOXGk71"
  },
  {
    "latitude": 35.16549700816355,
    "longitude": -0.6930828084659879,
    "nomFr": "Sidi Lahcene 1",
    "numero": "A11",
    "_id": "hzuHUfiMTnPlU0ja"
  },
  {
    "latitude": 35.16392995477307,
    "longitude": -0.6938230984815165,
    "nomFr": "Sidi Lahcene 2",
    "numero": "A11",
    "_id": "lmLECaaA4VYjMlyQ"
  },
  {
    "latitude": 35.160037041379724,
    "longitude": -0.6963372228346998,
    "nomFr": "Sidi Lahcene, Terminus A11",
    "numero": "A11",
    "_id": "eQHSSlFYspGNgvUk"
  },
  {
    "latitude": 35.177941730852105,
    "longitude": -0.5615472813224187,
    "nomFr": "Telmouni, Terminus A25",
    "numero": "A25",
    "_id": "SBTMoysd4LsK8IaN"
  },
  {
    "latitude": 35.222291065890936,
    "longitude": -0.6299040427766035,
    "nomFr": "Sogral, Gare Routière Nord",
    "numero": "A17",
    "_id": "oBoL6R6QiOaflrpO"
  },
  {
    "latitude": 35.19732796373274,
    "longitude": -0.6124789142441944,
    "nomFr": "Soricor Cité militaire",
    "numero": "A16",
    "_id": "elLPYRD5JnSRfN8S"
  },
  {
    "latitude": 35.195656898668595,
    "longitude": -0.6124692646517694,
    "nomFr": "Soricor Stade",
    "numero": "A16",
    "_id": "6i2zUqyMBAl9Ypyy"
  },
  {
    "latitude": 35.19921349623535,
    "longitude": -0.6310093400679762,
    "nomFr": "Station Amir Abdelkader",
    "numero": "A11",
    "_id": "CmfUPscVaf2DKlLx"
  },
  {
    "latitude": 35.19922737751252,
    "longitude": -0.6309860946930713,
    "nomFr": "Station Amir Abdelkader",
    "numero": "A22",
    "_id": "wNC0jG9n0KqhXnt1"
  },
  {
    "latitude": 35.19922226333342,
    "longitude": -0.6310057640075685,
    "nomFr": "Station Amir Abdelkader",
    "numero": "A25",
    "_id": "whHSEYIWDOw52F0O"
  },
  {
    "latitude": 35.19919011719102,
    "longitude": -0.6310379505157472,
    "nomFr": "Station Amir Abdelkader",
    "numero": "A27",
    "_id": "wj5i7HP5LOhuVE7m"
  },
  {
    "latitude": 35.172428518167756,
    "longitude": -0.552358030781761,
    "nomFr": "Telmouni 1",
    "numero": "A25",
    "_id": "7Hj19hkURFX4JQBw"
  }
]