[
      {
            "latitude": 35.19215275272939,
            "longitude": -0.6280533068919382,
            "nomFr": "Aissat Idir 1",
            "type": "bus",
            "numero": "A03_01",
            "_id": "aMO2mGXNn0mj9LK1"
      },
      {
            "latitude": 35.196396286426655,
            "longitude": -0.621936420521716,
            "nomFr": "Aissat Idir 2",
            "type": "bus",
            "numero": "A03_03",
            "_id": "OZTef6deEX9FevTU"
      },
      {
            "latitude": 35.20157,
            "longitude": -0.61173,
            "nomFr": "Campo",
            "type": "bus",
            "numero": "A03_06",
            "_id": "F2jEEXCuik9UNRUh"
      },
      {
            "latitude": 35.19523898103771,
            "longitude": -0.6236105157388284,
            "nomFr": "Casoran",
            "type": "bus",
            "numero": "A03_02",
            "_id": "mt2KybUEvSQxbLIi"
      },
      {
            "latitude": 35.20609756862548,
            "longitude": -0.614850364845685,
            "nomFr": "Cité Universitaire 2000",
            "type": "bus",
            "numero": "A03_08",
            "_id": "2YtBfSUKbgONdkRb"
      },
      {
            "latitude": 35.193011998523765,
            "longitude": -0.6323458587306986,
            "nomFr": "Coupole, Didouche Mourad",
            "type": "bus",
            "numero": "A03_00",
            "_id": "FNgLlVmEmHeCw2DT"
      },
      {
            "latitude": 35.21654566153408,
            "longitude": -0.6127652814441077,
            "nomFr": "Frères Adnane 1",
            "type": "bus",
            "numero": "A03_11",
            "_id": "MNFgQiYdXvd0aXpM"
      },
      {
            "latitude": 35.21602851147224,
            "longitude": -0.6083332216706028,
            "nomFr": "Frères Adnane 2",
            "type": "bus",
            "numero": "A03_12",
            "_id": "mh2AXgkg8a3sT3Lk"
      },
      {
            "latitude": 35.21332,
            "longitude": -0.61591,
            "nomFr": "Ghalmi, Gare Routiere Est",
            "type": "bus",
            "numero": "A03_10",
            "_id": "GuZW9uS4SoOE1BWB"
      },
      {
            "latitude": 35.20901,
            "longitude": -0.61641,
            "nomFr": "La Poste CPR, Les Cascades",
            "type": "bus",
            "numero": "A03_09",
            "_id": "U90Y4YMhF1vFfDZ9"
      },
      {
            "latitude": 35.199710297011464,
            "longitude": -0.6149206634227445,
            "nomFr": "Lycée Dar Abid",
            "type": "bus",
            "numero": "A03_05",
            "_id": "80bsE87YbELP7plF"
      },
      {
            "latitude": 35.217588716888685,
            "longitude": -0.6068308285270297,
            "nomFr": "Lycée Miloua Maachou",
            "type": "bus",
            "numero": "A03_13",
            "_id": "QgdLgxeYlbY6FO8K"
      },
      {
            "latitude": 35.198570573175516,
            "longitude": -0.6185023790507117,
            "nomFr": "Marché OFLA",
            "type": "bus",
            "numero": "A03_04",
            "_id": "SS7eDRMCHWBdoyBf"
      },
      {
            "latitude": 35.20441806358956,
            "longitude": -0.6135284900665284,
            "nomFr": "Protection Civile CPR",
            "type": "bus",
            "numero": "A03_07",
            "_id": "yceHE9hmGAgdHIlZ"
      },
      {
            "latitude": 35.21985008498701,
            "longitude": -0.6084405354665723,
            "nomFr": "Rocher, Terminus A03",
            "type": "bus",
            "numero": "A03_14",
            "_id": "QJbDCTezOp49CEzb"
      }
]